{
  "type": "FeatureCollection",
  "features": [
    {
      "type": "Feature",
      "id": "cafe-pastel",
      "properties": {
        "title": "Visit a new café in Povoa & get natas for everyone",
        "type": "go-to-place"
      },
      "geometry": {
        "type": "Point",
        "coordinates": [-8.764391205421285, 41.380126989727]
      }
    },
    {
      "type": "Feature",
      "id": "brazil-sign",
      "properties": {
        "title": "How far is Brazil?",
        "type": "spot-a-detail"
      },
      "geometry": {
        "type": "Point",
        "coordinates": [-8.785486471759592, 41.41637773829686]
      }
    },
    {
      "type": "Feature",
      "id": "fish-azulejos",
      "properties": {
        "title": "Find a fish on the wall in Paineis de Azulejos",
        "type": "spot-a-detail"
      },
      "geometry": {
        "type": "Point",
        "coordinates": [-8.767189401061495, 41.37830696339992]
      }
    },
    {
      "type": "Feature",
      "id": "birdwatching-park",
      "properties": {
        "title": "Go birdwatching in the parque da cidade & spot three different species of birds",
        "type": "find-and-count"
      },
      "geometry": {
        "type": "Point",
        "coordinates": [-8.755206853308533, 41.398755515562556]
      }
    },
    {
      "type": "Feature",
      "id": "beach-sunset",
      "properties": {
        "title": "Go to the beach during sunset & find a hidden treasure",
        "type": "spot-a-detail"
      },
      "geometry": {
        "type": "Point",
        "coordinates": [-8.782533952099302, 41.407181870993284]
      }
    },
    {
      "type": "Feature",
      "id": "sea-life-porto",
      "properties": {
        "title": "Keep the annual tradition alive, go to Sea Life in Porto & take a family picture in the exit",
        "type": "go-to-place"
      },
      "geometry": {
        "type": "Point",
        "coordinates": [-8.686558116444814, 41.16892099502329]
      }
    },
    {
      "type": "Feature",
      "id": "mexican-fort",
      "properties": {
        "title": "Go explore the Póvoa fort & eat Mexican",
        "type": "go-to-place"
      },
      "geometry": {
        "type": "Point",
        "coordinates": [-8.764418943948545, 41.378357111099994]
      }
    },
    {
      "type": "Feature",
      "id": "sushi-lunch",
      "properties": {
        "title": "Don't forget all you can eat sushi for lunch",
        "type": "go-to-place"
      },
      "geometry": {
        "type": "Point",
        "coordinates": [-8.775954091197583, 41.39343032134373]
      }
    }
  ]
}
